{"type":"FeatureCollection", "features":[
{"type":"Feature","geometry":{"type":"Point","coordinates":[29.88330599967219,-1.6054440004402295]},"properties":{"OBJECTID":162,"Prov_Kin":"Amajyaruguru","Prov_Eng":"Northern Province","District":"Burera","Sector":"Nemba","Cell":"Kivumu","Village":"Kigeyo","Name":"GS Kigeyo","School_ID":"441202","Highest_Ed":"Secondary O' Level","Coordinate":"Yes","Latitude":-1.605444,"Longitude":29.883306}},
{"type":"Feature","geometry":{"type":"Point","coordinates":[29.86116700035683,-1.6043329995682143]},"properties":{"OBJECTID":163,"Prov_Kin":"Amajyaruguru","Prov_Eng":"Northern Province","District":"Burera","Sector":"Nemba","Cell":"Kivumu","Village":"Mugano","Name":"GS Mugano","School_ID":"441203","Highest_Ed":"Secondary O' Level","Coordinate":"Yes","Latitude":-1.604333,"Longitude":29.861167}},
{"type":"Feature","geometry":{"type":"Point","coordinates":[29.8616419997785,-1.55703700025731]},"properties":{"OBJECTID":164,"Prov_Kin":"Amajyaruguru","Prov_Eng":"Northern Province","District":"Burera","Sector":"Nemba","Cell":"Nyamugali","Village":"Karyango","Name":"Nemba I","School_ID":"441208","Highest_Ed":"Primary","Coordinate":"Yes","Latitude":-1.557037,"Longitude":29.861642}},
{"type":"Feature","geometry":{"type":"Point","coordinates":[29.866473000428698,-1.5710930000418557]},"properties":{"OBJECTID":165,"Prov_Kin":"Amajyaruguru","Prov_Eng":"Northern Province","District":"Burera","Sector":"Nemba","Cell":"Nyamugali","Village":"Nyamuhondo","Name":"Nemba II","School_ID":"441209","Highest_Ed":"Primary","Coordinate":"Yes","Latitude":-1.571093,"Longitude":29.866473}},
{"type":"Feature","geometry":{"type":"Point","coordinates":[29.88132700014097,-1.5790520001496589]},"properties":{"OBJECTID":166,"Prov_Kin":"Amajyaruguru","Prov_Eng":"Northern Province","District":"Burera","Sector":"Nemba","Cell":"Rubona","Village":"Murandamo","Name":"Rubona","School_ID":"441211","Highest_Ed":"Primary","Coordinate":"Yes","Latitude":-1.579052,"Longitude":29.881327}},
{"type":"Feature","geometry":{"type":"Point","coordinates":[29.839306000371664,-1.5664720000826833]},"properties":{"OBJECTID":167,"Prov_Kin":"Amajyaruguru","Prov_Eng":"Northern Province","District":"Burera","Sector":"Nemba","Cell":"Rushara","Village":"Cyave","Name":"Cyave","School_ID":"441201","Highest_Ed":"Primary","Coordinate":"Yes","Latitude":-1.566472,"Longitude":29.839306}},
{"type":"Feature","geometry":{"type":"Point","coordinates":[29.84977800035449,-1.553082999580738]},"properties":{"OBJECTID":168,"Prov_Kin":"Amajyaruguru","Prov_Eng":"Northern Province","District":"Burera","Sector":"Nemba","Cell":"Rushara","Village":"Mugonero","Name":"GS Rushara","School_ID":"441204","Highest_Ed":"Secondary A' Level","Coordinate":"Yes","Latitude":-1.553083,"Longitude":29.849778}}
]}
